{
"type": "FeatureCollection",
"name": "CITYMAPS_POI\/CITYMAPS_NETTE_TOILETTE",
"crs": { "type": "name", "properties": { "name": "urn:ogc:def:crs:OGC:1.3:CRS84" } },
"features": [
{ "type": "Feature", "properties": { "NAME": "Restaurant Bar California", "KATEGORIE": "Umwelt", "GlobalId": "{78A1FB01-779E-43EA-AD19-C5CB539F4234}" }, "geometry": { "type": "Point", "coordinates": [ 8.311099647057084, 47.055382685508235 ] } },
{ "type": "Feature", "properties": { "NAME": "Tavolino Café Restaurant", "KATEGORIE": "Umwelt", "GlobalId": "{9855AB45-D262-4056-AAD9-808A3565B465}" }, "geometry": { "type": "Point", "coordinates": [ 8.306143596707715, 47.042223274726354 ] } },
{ "type": "Feature", "properties": { "NAME": "Hotel Falken", "KATEGORIE": "Umwelt", "GlobalId": "{8B7FE05A-FC50-4194-B7C9-0D2524401B94}" }, "geometry": { "type": "Point", "coordinates": [ 8.307619845464336, 47.0536249822553 ] } },
{ "type": "Feature", "properties": { "NAME": "Restaurant Lapin", "KATEGORIE": "Umwelt", "GlobalId": "{E77995A9-1F4B-477D-AD7E-75094BCF5326}" }, "geometry": { "type": "Point", "coordinates": [ 8.310255758692351, 47.055852445055422 ] } },
{ "type": "Feature", "properties": { "NAME": "Restaurant Parterre", "KATEGORIE": "Umwelt", "GlobalId": "{7218FCEF-4AEC-4A9C-AB41-54F332D69A6D}" }, "geometry": { "type": "Point", "coordinates": [ 8.307909951372331, 47.044726487778213 ] } },
{ "type": "Feature", "properties": { "NAME": "dieci Gelati", "KATEGORIE": "Umwelt", "GlobalId": "{80C1E550-EC7E-4517-B6F1-57BC722D1714}" }, "geometry": { "type": "Point", "coordinates": [ 8.307162672623759, 47.05205271755991 ] } },
{ "type": "Feature", "properties": { "NAME": "Restaurant Nix's in der Laterne", "KATEGORIE": "Umwelt", "GlobalId": "{DB036B34-A38B-4F22-94D6-D4F235CDBD15}" }, "geometry": { "type": "Point", "coordinates": [ 8.302835002838474, 47.050895499046192 ] } },
{ "type": "Feature", "properties": { "NAME": "Restaurant Ammos", "KATEGORIE": "Umwelt", "GlobalId": "{E1F23B49-3C01-47EF-92EF-021353B1A759}" }, "geometry": { "type": "Point", "coordinates": [ 8.302672416900283, 47.051026033460495 ] } },
{ "type": "Feature", "properties": { "NAME": "Restaurant Jodlerwirt", "KATEGORIE": "Umwelt", "GlobalId": "{5ECCCEFA-77D4-4CFF-B597-6F52E752E86E}" }, "geometry": { "type": "Point", "coordinates": [ 8.302073687913847, 47.050200787686933 ] } },
{ "type": "Feature", "properties": { "NAME": "Hotel Rebstock", "KATEGORIE": "Umwelt", "GlobalId": "{92EEBFE8-C74A-463A-9121-F63851CD21B1}" }, "geometry": { "type": "Point", "coordinates": [ 8.31265201633247, 47.055149024374153 ] } },
{ "type": "Feature", "properties": { "NAME": "Bar Capitol", "KATEGORIE": "Umwelt", "GlobalId": "{68053DAD-65A5-4A54-86ED-4AF346350E1D}" }, "geometry": { "type": "Point", "coordinates": [ 8.309738934877142, 47.045935555574147 ] } },
{ "type": "Feature", "properties": { "NAME": "Hotel Ibis Styles Luzern City", "KATEGORIE": "Umwelt", "GlobalId": "{438956B8-E8BD-421F-B27E-59CF9AE3DE0E}" }, "geometry": { "type": "Point", "coordinates": [ 8.311982398497925, 47.056734852354374 ] } },
{ "type": "Feature", "properties": { "NAME": "Bacio della Mamma", "KATEGORIE": "Umwelt", "GlobalId": "{80659350-F45D-4FBB-956C-0F7CCB835DF7}" }, "geometry": { "type": "Point", "coordinates": [ 8.307679558026861, 47.05011264946129 ] } },
{ "type": "Feature", "properties": { "NAME": "Wirtschaft zur Ente", "KATEGORIE": "Umwelt", "GlobalId": "{867E889C-2385-40B4-AE2A-E63358C2D3E1}" }, "geometry": { "type": "Point", "coordinates": [ 8.306374016893336, 47.050359024353554 ] } },
{ "type": "Feature", "properties": { "NAME": "Bottega Icilio", "KATEGORIE": "Umwelt", "GlobalId": "{181CC3F2-29A3-4F2F-811E-CC18EFCC2532}" }, "geometry": { "type": "Point", "coordinates": [ 8.305210038518224, 47.052951740223733 ] } },
{ "type": "Feature", "properties": { "NAME": "Restaurant Basilico und Jeff's Burger", "KATEGORIE": "Umwelt", "GlobalId": "{6999D5C2-87D6-467A-8FFE-862E70EE4BA4}" }, "geometry": { "type": "Point", "coordinates": [ 8.308069193660767, 47.047041333493532 ] } },
{ "type": "Feature", "properties": { "NAME": "Barbès-Restaurant-Bar", "KATEGORIE": "Umwelt", "GlobalId": "{5D2A695A-A0A3-4400-9A97-AC5E2BD8C756}" }, "geometry": { "type": "Point", "coordinates": [ 8.307486540391062, 47.045988153710432 ] } },
{ "type": "Feature", "properties": { "NAME": "Ristorante La Fenice", "KATEGORIE": "Umwelt", "GlobalId": "{D974E7AD-18A4-4694-9C74-DE14CB4955C0}" }, "geometry": { "type": "Point", "coordinates": [ 8.304881888943564, 47.052362632916747 ] } }
]
}
